{
    "meetups": [
        {
            "name": "Portugal Norte - Bitcoin Meetup",
            "location": {
                "place": "French Fries Factory",
                "address": "Rua do Bonjardim 302",
                "city": "Porto"
            },
            "time": "",
            "img": "https://raw.githubusercontent.com/talvasconcelos/aceita/main/public/images/meetups/porto.png",
            "description": "",
            "link": "https://t.me/btcnortept"
        },{
            "name": "Bitcoin e Liberdade Meetup",
            "location": {
                    "place": "Alma do Raio",
                "address": "Rua do Raio nº 38",
                "city": "Braga"
            },
            "time": "",
            "img": "https://raw.githubusercontent.com/talvasconcelos/aceita/main/public/images/meetups/norte.png",
            "description": "",
            "link": "https://t.me/ancapbit"
        },
        {
            "name": "Oeste Bitcoin Maxi Meetup",
            "location": {
                "place": "Restaurante Real Balcão 5",
                "address": "Largo dos Heróis de Naulila 5",
                "city": "Caldas da Rainha"
            },
            "time": "",
            "img": "https://raw.githubusercontent.com/talvasconcelos/aceita/main/public/images/meetups/oeste.png",
            "description": "",
            "link": "https://t.me/OesteBitcoinMeetUp"
        },
        {
            "name": "Lisbon Bitcoin Maxis",
            "location": {
                "place": "Carnalentejana",
                "address": "Campo Pequeno D",
                "city": "Lisboa"
            },
            "time": "",
            "img": "https://raw.githubusercontent.com/talvasconcelos/aceita/main/public/images/meetups/lisboa.png",
            "description": "",
            "link": "https://t.me/lisbonbitcoin"
        },
        {
            "name": "Bitcoin Tribe Algarve",
            "location": {
                "place": "Default Place",
                "address": "Somewhere in Algarve",
                "city": "Faro"
            },
            "time": "",
            "img": "https://raw.githubusercontent.com/talvasconcelos/aceita/main/public/images/meetups/algarve.png",
            "description": "",
            "link": "https://t.me/BitcoinAlgarve"
        },
        {
            "name": "FREE Madeira Bitcoin Meetup",
            "location": {
                "place": "Cowork Space Andre Loja",
                "address": "FREE MADEIRA CoWorkSpace",
                "city": "Funchal"
            },
            "time": "",
            "img": "https://raw.githubusercontent.com/talvasconcelos/aceita/main/public/images/meetups/madeira.png",
            "description": "",
            "link": "https://t.me/freemadeira"
        }
    ]
}